[
    {
        "id": "6c53984f-fac1-4ea7-9c44-44e25897c71a",
        "name": "14th Star Brewing",
        "brewery_type": "micro",
        "address_1": "133 N Main St Ste 7",
        "address_2": null,
        "address_3": null,
        "city": "Saint Albans",
        "state_province": "Vermont",
        "postal_code": "05478-1735",
        "country": "United States",
        "longitude": null,
        "latitude": null,
        "phone": "8025285988",
        "website_url": "http://www.14thstarbrewing.com",
        "state": "Vermont",
        "street": "133 N Main St Ste 7"
    },
    {
        "id": "4dcaeaa3-d7cc-4016-9392-5bde4e3a8f4d",
        "name": "1st Republic Brewing Co",
        "brewery_type": "micro",
        "address_1": "39 River Rd Ste 6",
        "address_2": null,
        "address_3": null,
        "city": "Essex Junction",
        "state_province": "Vermont",
        "postal_code": "05452-3879",
        "country": "United States",
        "longitude": null,
        "latitude": null,
        "phone": "8028575318",
        "website_url": "http://www.1strepublic-homebrew.com",
        "state": "Vermont",
        "street": "39 River Rd Ste 6"
    },
    {
        "id": "091edbcc-f9fc-484e-9c04-c18ed505e2ac",
        "name": "Alchemist Cannery",
        "brewery_type": "regional",
        "address_1": "35 Crossroad",
        "address_2": null,
        "address_3": null,
        "city": "Waterbury",
        "state_province": "Vermont",
        "postal_code": "05676-9003",
        "country": "United States",
        "longitude": null,
        "latitude": null,
        "phone": "8022447744",
        "website_url": "http://www.alchemistbeer.com",
        "state": "Vermont",
        "street": "35 Crossroad"
    },
    {
        "id": "b48ce764-abf5-41cb-b9c5-93cf4fdc6b57",
        "name": "Backacre Beermakers",
        "brewery_type": "micro",
        "address_1": null,
        "address_2": null,
        "address_3": null,
        "city": "Weston",
        "state_province": "Vermont",
        "postal_code": "05161",
        "country": "United States",
        "longitude": null,
        "latitude": null,
        "phone": null,
        "website_url": "http://www.backacrebeermakers.com",
        "state": "Vermont",
        "street": null
    },
    {
        "id": "3c2c022b-b5c3-438e-b7fc-67b76b715f86",
        "name": "Beer Naked Brewery",
        "brewery_type": "brewpub",
        "address_1": "7678 VT-RTE 9",
        "address_2": null,
        "address_3": null,
        "city": "Marlboro",
        "state_province": "Vermont",
        "postal_code": "05344",
        "country": "United States",
        "longitude": null,
        "latitude": null,
        "phone": "8024647702",
        "website_url": "http://www.beernakedbrewery.com",
        "state": "Vermont",
        "street": "7678 VT-RTE 9"
    },
    {
        "id": "f4431225-2c10-4479-9ece-0090a958c1c1",
        "name": "Bent Hill Brewery",
        "brewery_type": "micro",
        "address_1": "1972 Bent Hill Rd",
        "address_2": null,
        "address_3": null,
        "city": "Randolph",
        "state_province": "Vermont",
        "postal_code": "05060-8833",
        "country": "United States",
        "longitude": null,
        "latitude": null,
        "phone": "8022491125",
        "website_url": "http://www.benthilbrewery.com",
        "state": "Vermont",
        "street": "1972 Bent Hill Rd"
    },
    {
        "id": "add8f33d-d999-4acd-a8cc-11cac7434700",
        "name": "Bobcat Brewery & Cafe",
        "brewery_type": "brewpub",
        "address_1": "5 Main St",
        "address_2": null,
        "address_3": null,
        "city": "Bristol",
        "state_province": "Vermont",
        "postal_code": "05443-1317",
        "country": "United States",
        "longitude": "-73.07811204",
        "latitude": "44.13284975",
        "phone": "8024533311",
        "website_url": "http://www.bobcatcafe.com",
        "state": "Vermont",
        "street": "5 Main St"
    },
    {
        "id": "ab8115a1-d3ee-4d85-9914-ed54b78ed94f",
        "name": "Brewster River Pub & Brewery",
        "brewery_type": "brewpub",
        "address_1": "4087 Vt Route 108 S",
        "address_2": null,
        "address_3": null,
        "city": "Jeffersonville",
        "state_province": "Vermont",
        "postal_code": "05464-9509",
        "country": "United States",
        "longitude": null,
        "latitude": null,
        "phone": "8026446366",
        "website_url": "http://www.brewsterriverpubnbrewery.com",
        "state": "Vermont",
        "street": "4087 Vt Route 108 S"
    },
    {
        "id": "b14a1304-1e82-4f22-977e-618499c78e40",
        "name": "Brocklebank Craft Brewing",
        "brewery_type": "micro",
        "address_1": "357 Dickerman Hill Rd",
        "address_2": null,
        "address_3": null,
        "city": "Chelsea",
        "state_province": "Vermont",
        "postal_code": "05038-9098",
        "country": "United States",
        "longitude": null,
        "latitude": null,
        "phone": "8026854838",
        "website_url": "http://www.brocklebankvt.com",
        "state": "Vermont",
        "street": "357 Dickerman Hill Rd"
    },
    {
        "id": "bc2ab74e-761e-45de-91ae-00deb4e0dd9b",
        "name": "Burlington Beer Company",
        "brewery_type": "micro",
        "address_1": "25 Omega Dr Ste 150",
        "address_2": null,
        "address_3": null,
        "city": "Williston",
        "state_province": "Vermont",
        "postal_code": "05495-7334",
        "country": "United States",
        "longitude": null,
        "latitude": null,
        "phone": "8028632337",
        "website_url": "http://www.burlingtonbeercompany.com",
        "state": "Vermont",
        "street": "25 Omega Dr Ste 150"
    },
    {
        "id": "29891984-0438-4e8a-be6c-f7275fda484b",
        "name": "Drop In Brewing",
        "brewery_type": "micro",
        "address_1": "610 Route 7 S",
        "address_2": null,
        "address_3": null,
        "city": "Middlebury",
        "state_province": "Vermont",
        "postal_code": "05753-8987",
        "country": "United States",
        "longitude": null,
        "latitude": null,
        "phone": "8029897414",
        "website_url": "http://www.dropinbeer.com",
        "state": "Vermont",
        "street": "610 Route 7 S"
    },
    {
        "id": "0186da1a-a5c4-4076-8a33-25ee193a65a4",
        "name": "Farm Road Brewery",
        "brewery_type": "planning",
        "address_1": null,
        "address_2": null,
        "address_3": null,
        "city": "Arlington",
        "state_province": "Vermont",
        "postal_code": "05250-8766",
        "country": "United States",
        "longitude": null,
        "latitude": null,
        "phone": null,
        "website_url": null,
        "state": "Vermont",
        "street": null
    },
    {
        "id": "2151a210-0008-45b5-902a-6300cd87bea6",
        "name": "Farnham Ale & Lager",
        "brewery_type": "micro",
        "address_1": "82 Ethan Allen Dr",
        "address_2": null,
        "address_3": null,
        "city": "South Burlington",
        "state_province": "Vermont",
        "postal_code": "05403-5971",
        "country": "United States",
        "longitude": "-73.15391274",
        "latitude": "44.48290389",
        "phone": "8027351288",
        "website_url": "http://www.farnham-alelager.com",
        "state": "Vermont",
        "street": "82 Ethan Allen Dr"
    },
    {
        "id": "888304f6-73fc-44ee-99f4-bf7c04cd39b8",
        "name": "Fiddlehead Brewing",
        "brewery_type": "regional",
        "address_1": "6305 Shelburne Rd",
        "address_2": null,
        "address_3": null,
        "city": "Shelburne",
        "state_province": "Vermont",
        "postal_code": "05482-4437",
        "country": "United States",
        "longitude": "-73.2326193",
        "latitude": "44.3660621",
        "phone": "8023992994",
        "website_url": "http://www.fiddleheadbrewing.com",
        "state": "Vermont",
        "street": "6305 Shelburne Rd"
    },
    {
        "id": "3567b09e-51e3-4f69-8666-8a3ff46d405b",
        "name": "Foam Brewers",
        "brewery_type": "micro",
        "address_1": "112 Lake St",
        "address_2": null,
        "address_3": null,
        "city": "Burlington",
        "state_province": "Vermont",
        "postal_code": "05401-5284",
        "country": "United States",
        "longitude": "-73.2200287",
        "latitude": "44.4793121",
        "phone": "8023992511",
        "website_url": "http://www.foambrewers.com",
        "state": "Vermont",
        "street": "112 Lake St"
    },
    {
        "id": "87b318f5-5c45-4e21-b577-5389e650453a",
        "name": "Foley Brothers Brewing Co.",
        "brewery_type": "micro",
        "address_1": "79 Stone Mill Dam Rd",
        "address_2": null,
        "address_3": null,
        "city": "Brandon",
        "state_province": "Vermont",
        "postal_code": "05733-8945",
        "country": "United States",
        "longitude": null,
        "latitude": null,
        "phone": "8024658413",
        "website_url": null,
        "state": "Vermont",
        "street": "79 Stone Mill Dam Rd"
    },
    {
        "id": "09fe8bee-43c0-4238-a8aa-229371372753",
        "name": "Four Quarters Brewing Co",
        "brewery_type": "micro",
        "address_1": "150 W Canal St",
        "address_2": null,
        "address_3": null,
        "city": "Winooski",
        "state_province": "Vermont",
        "postal_code": "05404-2171",
        "country": "United States",
        "longitude": "-73.1924334",
        "latitude": "44.4906838",
        "phone": "8023243327",
        "website_url": "http://www.4qbc.com",
        "state": "Vermont",
        "street": "150 W Canal St"
    },
    {
        "id": "e2b6a2f4-631c-40a0-97be-47942c7be3d6",
        "name": "Foy Enterprises LLC DBA Dog River Brewery",
        "brewery_type": "micro",
        "address_1": "1400 US Route 302 Ste 4",
        "address_2": null,
        "address_3": null,
        "city": "Barre",
        "state_province": "Vermont",
        "postal_code": "05641-2320",
        "country": "United States",
        "longitude": null,
        "latitude": null,
        "phone": "8025054053",
        "website_url": null,
        "state": "Vermont",
        "street": "1400 US Route 302 Ste 4"
    },
    {
        "id": "195cf158-f511-4604-ba38-f40f3dbd1928",
        "name": "Frost Beer Works",
        "brewery_type": "micro",
        "address_1": "171 Commerce St",
        "address_2": null,
        "address_3": null,
        "city": "Hinesburg",
        "state_province": "Vermont",
        "postal_code": "05461-4482",
        "country": "United States",
        "longitude": "-73.1089808",
        "latitude": "44.3353247",
        "phone": "9499454064",
        "website_url": "http://www.frostbeerworks.com",
        "state": "Vermont",
        "street": "171 Commerce St"
    },
    {
        "id": "e9231b48-c709-4934-b6eb-0a79117523da",
        "name": "Good Measure Brewing Co",
        "brewery_type": "micro",
        "address_1": "17 East St",
        "address_2": null,
        "address_3": null,
        "city": "Northfield",
        "state_province": "Vermont",
        "postal_code": "05663-6719",
        "country": "United States",
        "longitude": "-72.6556223",
        "latitude": "44.1487966",
        "phone": null,
        "website_url": "http://www.goodmeasurebrewing.com",
        "state": "Vermont",
        "street": "17 East St"
    },
    {
        "id": "df996aa0-8e03-48af-9143-080e58b236cb",
        "name": "GoodWater Brewery",
        "brewery_type": "micro",
        "address_1": "740 Marshall Ave",
        "address_2": null,
        "address_3": null,
        "city": "Williston",
        "state_province": "Vermont",
        "postal_code": "05495-8978",
        "country": "United States",
        "longitude": null,
        "latitude": null,
        "phone": "8029997396",
        "website_url": "http://www.goodwaterbreweryvt.com",
        "state": "Vermont",
        "street": "740 Marshall Ave"
    },
    {
        "id": "26d5210e-54b9-4375-9d69-5c296ca83038",
        "name": "Halyard Brewing Company",
        "brewery_type": "micro",
        "address_1": "80 Ethan Allen Dr Ste 2",
        "address_2": null,
        "address_3": null,
        "city": "South Burlington",
        "state_province": "Vermont",
        "postal_code": "05403-5971",
        "country": "United States",
        "longitude": null,
        "latitude": null,
        "phone": "9048742734",
        "website_url": "http://www.halyardbrewing.us",
        "state": "Vermont",
        "street": "80 Ethan Allen Dr Ste 2"
    },
    {
        "id": "f5157980-ddcd-4b1e-ad28-c3430ab6126f",
        "name": "Harpoon Brewery - Vermont",
        "brewery_type": "regional",
        "address_1": "336 Ruth Carney Dr",
        "address_2": null,
        "address_3": null,
        "city": "Windsor",
        "state_province": "Vermont",
        "postal_code": "05089-9419",
        "country": "United States",
        "longitude": "-72.40380616",
        "latitude": "43.51478045",
        "phone": "8026745491",
        "website_url": "http://www.harpoonbrewery.com",
        "state": "Vermont",
        "street": "336 Ruth Carney Dr"
    },
    {
        "id": "8737ea88-e3f4-453b-9239-12a675509b68",
        "name": "Hermit Thrush Brewery, LLC",
        "brewery_type": "micro",
        "address_1": "29 High St Ste 101C",
        "address_2": null,
        "address_3": null,
        "city": "Brattleboro",
        "state_province": "Vermont",
        "postal_code": "05301-3041",
        "country": "United States",
        "longitude": null,
        "latitude": null,
        "phone": "8022572337",
        "website_url": "http://www.hermitthrushbrewery.com",
        "state": "Vermont",
        "street": "29 High St Ste 101C"
    },
    {
        "id": "d3dcc573-2440-4e64-a553-f4945bb38056",
        "name": "Hill Farmstead Brewery",
        "brewery_type": "micro",
        "address_1": "403 Hill Rd",
        "address_2": null,
        "address_3": null,
        "city": "Greensboro Bend",
        "state_province": "Vermont",
        "postal_code": "05842-8813",
        "country": "United States",
        "longitude": null,
        "latitude": null,
        "phone": "8025337450",
        "website_url": "http://www.hillfarmstead.com",
        "state": "Vermont",
        "street": "403 Hill Rd"
    },
    {
        "id": "bba56fa4-5787-426b-9eab-621c4a57d805",
        "name": "Hogback Mountain Brewery",
        "brewery_type": "micro",
        "address_1": "51 North St",
        "address_2": null,
        "address_3": null,
        "city": "Bristol",
        "state_province": "Vermont",
        "postal_code": "05443-1026",
        "country": "United States",
        "longitude": "-73.079007",
        "latitude": "44.136511",
        "phone": "8023498195",
        "website_url": "http://hogbackbrew.com",
        "state": "Vermont",
        "street": "51 North St"
    },
    {
        "id": "5d061fd0-cdd3-4dc6-8631-9bbb35aed139",
        "name": "Hop'n Moose Brewing Company",
        "brewery_type": "brewpub",
        "address_1": "41 Center St",
        "address_2": null,
        "address_3": null,
        "city": "Rutland",
        "state_province": "Vermont",
        "postal_code": "05701-4016",
        "country": "United States",
        "longitude": "-72.97743",
        "latitude": "43.606783",
        "phone": "8027757063",
        "website_url": "http://www.hopnmoose.com",
        "state": "Vermont",
        "street": "41 Center St"
    },
    {
        "id": "16d20128-a551-4eb6-bb79-71b9c2943e35",
        "name": "Idletyme Brewing Company",
        "brewery_type": "brewpub",
        "address_1": "1859 Mountain Rd",
        "address_2": null,
        "address_3": null,
        "city": "Stowe",
        "state_province": "Vermont",
        "postal_code": "05672-4890",
        "country": "United States",
        "longitude": "-72.698401",
        "latitude": "44.473833",
        "phone": "8022534765",
        "website_url": "http://www.idletymebrewing.com",
        "state": "Vermont",
        "street": "1859 Mountain Rd"
    },
    {
        "id": "bc36be6b-e3ad-4821-9b7f-f1844919ad22",
        "name": "J'ville Brewery",
        "brewery_type": "micro",
        "address_1": "201 Vt Route 112",
        "address_2": null,
        "address_3": null,
        "city": "Jacksonville",
        "state_province": "Vermont",
        "postal_code": "05342-9634",
        "country": "United States",
        "longitude": null,
        "latitude": null,
        "phone": "8023682233",
        "website_url": "http://www.jvillebrewery.com",
        "state": "Vermont",
        "street": "201 Vt Route 112"
    },
    {
        "id": "43345a90-663e-4e85-9434-777cc8be53e1",
        "name": "Kickback Brewery",
        "brewery_type": "micro",
        "address_1": "934 Osgood Hill Rd",
        "address_2": null,
        "address_3": null,
        "city": "Westford",
        "state_province": "Vermont",
        "postal_code": "05494-9740",
        "country": "United States",
        "longitude": "-72.99402467",
        "latitude": "44.582023",
        "phone": "8029994997",
        "website_url": "http://www.kickbackbrewery.com",
        "state": "Vermont",
        "street": "934 Osgood Hill Rd"
    },
    {
        "id": "3fb492d0-f799-4678-ac00-f5b43b6e808e",
        "name": "Kingdom Brewing",
        "brewery_type": "micro",
        "address_1": "1876 Vt Route 105",
        "address_2": null,
        "address_3": null,
        "city": "Newport",
        "state_province": "Vermont",
        "postal_code": "05855-9915",
        "country": "United States",
        "longitude": null,
        "latitude": null,
        "phone": "8023347096",
        "website_url": "http://www.kingdombrewingvt.com",
        "state": "Vermont",
        "street": "1876 Vt Route 105"
    },
    {
        "id": "1100b021-9189-4b09-9d0b-73c66782136b",
        "name": "Lawson's Finest Liquids",
        "brewery_type": "micro",
        "address_1": null,
        "address_2": null,
        "address_3": null,
        "city": "Warren",
        "state_province": "Vermont",
        "postal_code": "05674",
        "country": "United States",
        "longitude": null,
        "latitude": null,
        "phone": "8024964677",
        "website_url": "http://www.lawsonsfinest.com",
        "state": "Vermont",
        "street": null
    },
    {
        "id": "95fc1431-cef6-4551-b221-cc6fa0fedba4",
        "name": "Long Trail Brewing Co",
        "brewery_type": "regional",
        "address_1": "5520 US Route 4 Jct. Route 4 & 100A",
        "address_2": null,
        "address_3": null,
        "city": "Bridgewater Corners",
        "state_province": "Vermont",
        "postal_code": "05035",
        "country": "United States",
        "longitude": null,
        "latitude": null,
        "phone": "8026725011",
        "website_url": "http://www.longtrail.com",
        "state": "Vermont",
        "street": "5520 US Route 4 Jct. Route 4 & 100A"
    },
    {
        "id": "e26dc654-64c9-4d6e-a139-95a7b009d0ee",
        "name": "Lost Nation Brewing",
        "brewery_type": "brewpub",
        "address_1": "87 Old Creamery Rd",
        "address_2": null,
        "address_3": null,
        "city": "Morrisville",
        "state_province": "Vermont",
        "postal_code": "05661-6152",
        "country": "United States",
        "longitude": null,
        "latitude": null,
        "phone": null,
        "website_url": "http://www.lostnationbrewing.com",
        "state": "Vermont",
        "street": "87 Old Creamery Rd"
    },
    {
        "id": "9cfdc1bb-b22c-4e9d-a569-c277a7e44b53",
        "name": "Madison Brewing Co, Pub and Restaurant",
        "brewery_type": "brewpub",
        "address_1": "428 Main St",
        "address_2": null,
        "address_3": null,
        "city": "Bennington",
        "state_province": "Vermont",
        "postal_code": "05201-2109",
        "country": "United States",
        "longitude": "-73.1963588",
        "latitude": "42.8783819",
        "phone": "8024427397",
        "website_url": "http://www.madisonbrewingco.com",
        "state": "Vermont",
        "street": "428 Main St"
    },
    {
        "id": "f781db23-6391-4db3-a70e-885517e9a6d8",
        "name": "Magic Hat Brewing Co/ North American Breweries",
        "brewery_type": "regional",
        "address_1": "5 Bartlett Bay Rd",
        "address_2": null,
        "address_3": null,
        "city": "South Burlington",
        "state_province": "Vermont",
        "postal_code": "05403-7727",
        "country": "United States",
        "longitude": "-73.21616773",
        "latitude": "44.42808692",
        "phone": "8026582739",
        "website_url": null,
        "state": "Vermont",
        "street": "5 Bartlett Bay Rd"
    },
    {
        "id": "4d1ba278-c182-4c2c-8185-a0d133342486",
        "name": "McNeills Brewery",
        "brewery_type": "brewpub",
        "address_1": "90 Elliot St",
        "address_2": null,
        "address_3": null,
        "city": "Brattleboro",
        "state_province": "Vermont",
        "postal_code": "05301-3269",
        "country": "United States",
        "longitude": "-72.55933779",
        "latitude": "42.8518861",
        "phone": "8022542553",
        "website_url": null,
        "state": "Vermont",
        "street": "90 Elliot St"
    },
    {
        "id": "a04edd75-2b83-4aa5-9dc1-d89bf61f2e38",
        "name": "Mill River Brewing BBQ & Smokehouse",
        "brewery_type": "brewpub",
        "address_1": "10 Beauregard Dr",
        "address_2": null,
        "address_3": null,
        "city": "Saint Albans City",
        "state_province": "Vermont",
        "postal_code": "05478",
        "country": "United States",
        "longitude": null,
        "latitude": null,
        "phone": "8025824182",
        "website_url": "http://www.millriverbrewing.com",
        "state": "Vermont",
        "street": "10 Beauregard Dr"
    },
    {
        "id": "0d6daf79-df94-4045-966e-20dae3433511",
        "name": "Next Trick Brewing LLC",
        "brewery_type": "brewpub",
        "address_1": "2370 US Route 5",
        "address_2": null,
        "address_3": null,
        "city": "West Burke",
        "state_province": "Vermont",
        "postal_code": "05871-",
        "country": "United States",
        "longitude": null,
        "latitude": null,
        "phone": "8023281364",
        "website_url": "http://www.nexttrickbrewing.com",
        "state": "Vermont",
        "street": "2370 US Route 5"
    },
    {
        "id": "479157a8-7e68-4983-91a5-9b6b2a5ee470",
        "name": "Northshire Brewery, Inc",
        "brewery_type": "micro",
        "address_1": "108 County St",
        "address_2": null,
        "address_3": null,
        "city": "Bennington",
        "state_province": "Vermont",
        "postal_code": "05201-1807",
        "country": "United States",
        "longitude": "-73.20053877",
        "latitude": "42.88457164",
        "phone": "8026810201",
        "website_url": "http://www.northshirebrewery.com",
        "state": "Vermont",
        "street": "108 County St"
    },
    {
        "id": "1cbec9c9-522a-4d61-9848-34f8d9230a99",
        "name": "Otter Creek Brewing Co",
        "brewery_type": "regional",
        "address_1": "793 Exchange St",
        "address_2": null,
        "address_3": null,
        "city": "Middlebury",
        "state_province": "Vermont",
        "postal_code": "05753-1193",
        "country": "United States",
        "longitude": "-73.17075772",
        "latitude": "44.03315644",
        "phone": "8023880727",
        "website_url": "http://www.ottercreekbrewing.com",
        "state": "Vermont",
        "street": "793 Exchange St"
    },
    {
        "id": "de23fb6c-55b7-4e7d-a27f-dca9ce7816f0",
        "name": "Outer Limits Brewing, LLC",
        "brewery_type": "planning",
        "address_1": null,
        "address_2": null,
        "address_3": null,
        "city": "Proctorsville",
        "state_province": "Vermont",
        "postal_code": "05153-9518",
        "country": "United States",
        "longitude": null,
        "latitude": null,
        "phone": "2072057076",
        "website_url": null,
        "state": "Vermont",
        "street": null
    },
    {
        "id": "0753cb2a-dcab-4b00-a941-b2a1af31cb42",
        "name": "Prohibition Pig",
        "brewery_type": "brewpub",
        "address_1": "23 S Main St Ste 1",
        "address_2": null,
        "address_3": null,
        "city": "Waterbury",
        "state_province": "Vermont",
        "postal_code": "05676-1863",
        "country": "United States",
        "longitude": null,
        "latitude": null,
        "phone": "8022444120",
        "website_url": "http://www.prohibitionpig.com",
        "state": "Vermont",
        "street": "23 S Main St Ste 1"
    },
    {
        "id": "fbba8bc4-e368-44a0-8526-3c792d164ab1",
        "name": "Queen City Brewery, LLC",
        "brewery_type": "micro",
        "address_1": "703 Pine St",
        "address_2": null,
        "address_3": null,
        "city": "Burlington",
        "state_province": "Vermont",
        "postal_code": "05401-4921",
        "country": "United States",
        "longitude": "-73.21483275",
        "latitude": "44.4594977",
        "phone": "8025400280",
        "website_url": "http://www.queencitybrewery.com",
        "state": "Vermont",
        "street": "703 Pine St"
    },
    {
        "id": "ce8288fb-5db6-443d-a55c-4a22d5c9cb2d",
        "name": "Red Barn Brewing",
        "brewery_type": "micro",
        "address_1": "2170 Oneida Rd",
        "address_2": null,
        "address_3": null,
        "city": "Danville",
        "state_province": "Vermont",
        "postal_code": "05828-",
        "country": "United States",
        "longitude": "-72.17748576",
        "latitude": "44.39460429",
        "phone": "8026849749",
        "website_url": "http://www.redbarnbrewingvt.com",
        "state": "Vermont",
        "street": "2170 Oneida Rd"
    },
    {
        "id": "3bcfdd00-3126-4d97-8a75-7236d477b6cf",
        "name": "River Roost Brewery",
        "brewery_type": "micro",
        "address_1": "230 S Main St",
        "address_2": null,
        "address_3": null,
        "city": "White River Junction",
        "state_province": "Vermont",
        "postal_code": "05001-7204",
        "country": "United States",
        "longitude": "-72.31821547",
        "latitude": "43.64560685",
        "phone": null,
        "website_url": "http://www.riverroostbrewery.com",
        "state": "Vermont",
        "street": "230 S Main St"
    },
    {
        "id": "e754c609-31df-4357-9d69-2751c57e4737",
        "name": "Rock Art Brewery",
        "brewery_type": "micro",
        "address_1": "632 Laporte Rd",
        "address_2": null,
        "address_3": null,
        "city": "Morrisville",
        "state_province": "Vermont",
        "postal_code": "05661-8322",
        "country": "United States",
        "longitude": null,
        "latitude": null,
        "phone": "8028889400",
        "website_url": "http://www.rockartbrewery.com",
        "state": "Vermont",
        "street": "632 Laporte Rd"
    },
    {
        "id": "44dda0d1-ec31-47ce-a4ca-b3fef5161990",
        "name": "Saint J Brewery",
        "brewery_type": "brewpub",
        "address_1": "2002 Memorial Dr",
        "address_2": null,
        "address_3": null,
        "city": "Saint Johnsbury",
        "state_province": "Vermont",
        "postal_code": "05819-8991",
        "country": "United States",
        "longitude": "-72.01506898",
        "latitude": "44.45918219",
        "phone": "8024241700",
        "website_url": "http://www.saintjbrewery.com",
        "state": "Vermont",
        "street": "2002 Memorial Dr"
    },
    {
        "id": "7217ca2a-393c-4b27-a87c-70c948d113c3",
        "name": "Simple Roots Brewing Co",
        "brewery_type": "micro",
        "address_1": "1127 North Ave Ste 8",
        "address_2": null,
        "address_3": null,
        "city": "Burlington",
        "state_province": "Vermont",
        "postal_code": "05408-2756",
        "country": "United States",
        "longitude": null,
        "latitude": null,
        "phone": null,
        "website_url": null,
        "state": "Vermont",
        "street": "1127 North Ave Ste 8"
    },
    {
        "id": "b02a3dcf-6e21-4ae4-9c14-efdd618b42d6",
        "name": "Stone Corral Brewery",
        "brewery_type": "micro",
        "address_1": "83 Huntington Rd Unit 1",
        "address_2": null,
        "address_3": null,
        "city": "Richmond",
        "state_province": "Vermont",
        "postal_code": "05477-9839",
        "country": "United States",
        "longitude": null,
        "latitude": null,
        "phone": "8024345787",
        "website_url": "http://stonecorral.com",
        "state": "Vermont",
        "street": "83 Huntington Rd Unit 1"
    },
    {
        "id": "45d47b1f-2968-4adb-848c-f46e0d43362f",
        "name": "Switchback Brewing Co",
        "brewery_type": "regional",
        "address_1": "160 Flynn Ave",
        "address_2": null,
        "address_3": null,
        "city": "Burlington",
        "state_province": "Vermont",
        "postal_code": "05401-5400",
        "country": "United States",
        "longitude": "-73.22068075",
        "latitude": "44.45680085",
        "phone": "8026514114",
        "website_url": "http://www.switchbackvt.com",
        "state": "Vermont",
        "street": "160 Flynn Ave"
    },
    {
        "id": "b68a7e7e-29fa-427a-a40b-1216a00af829",
        "name": "Ten Bends Beer",
        "brewery_type": "micro",
        "address_1": "590 E Main St",
        "address_2": null,
        "address_3": null,
        "city": "Hyde Park",
        "state_province": "Vermont",
        "postal_code": "05655-9267",
        "country": "United States",
        "longitude": "-72.60515022",
        "latitude": "44.58894694",
        "phone": "8025217139",
        "website_url": "http://wwwtenbendsbeer.com",
        "state": "Vermont",
        "street": "590 E Main St"
    },
    {
        "id": "5e3c3edf-7aa5-4c52-92ef-769f6ac6e918",
        "name": "The Norwich Inn - Jasper Murdock's Alehouse",
        "brewery_type": "brewpub",
        "address_1": "325 Main St",
        "address_2": null,
        "address_3": null,
        "city": "Norwich",
        "state_province": "Vermont",
        "postal_code": "05055-9453",
        "country": "United States",
        "longitude": "-72.3091387",
        "latitude": "43.7150119",
        "phone": "8026491143",
        "website_url": "http://www.norwichinn.com",
        "state": "Vermont",
        "street": "325 Main St"
    },
    {
        "id": "f8768842-899b-4df1-841e-d377b7f9c337",
        "name": "Trout River Brewing Co",
        "brewery_type": "micro",
        "address_1": "100 River Street RR 5",
        "address_2": null,
        "address_3": null,
        "city": "Springfield",
        "state_province": "Vermont",
        "postal_code": "05156",
        "country": "United States",
        "longitude": null,
        "latitude": null,
        "phone": null,
        "website_url": "http://www.troutriverbrewing.com",
        "state": "Vermont",
        "street": "100 River Street RR 5"
    },
    {
        "id": "784b40eb-252d-4e8e-a002-e11de9c3b59a",
        "name": "Vermont Pub and Brewery",
        "brewery_type": "brewpub",
        "address_1": "144 College St",
        "address_2": null,
        "address_3": null,
        "city": "Burlington",
        "state_province": "Vermont",
        "postal_code": "05401-8416",
        "country": "United States",
        "longitude": "-73.2143746",
        "latitude": "44.4772683",
        "phone": "8028650500",
        "website_url": "http://www.vermontbrewery.com",
        "state": "Vermont",
        "street": "144 College St"
    },
    {
        "id": "77a8265c-2d3b-4f30-babe-87a1e0a4c37d",
        "name": "Von Trapp Brewing",
        "brewery_type": "micro",
        "address_1": "1333 Luce Hill Rd",
        "address_2": null,
        "address_3": null,
        "city": "Stowe",
        "state_province": "Vermont",
        "postal_code": "05672",
        "country": "United States",
        "longitude": "-72.791432",
        "latitude": "44.470714",
        "phone": "8022535750",
        "website_url": "http://www.trappfamily.com",
        "state": "Vermont",
        "street": "1333 Luce Hill Rd"
    },
    {
        "id": "0609948f-d8d4-4d29-899a-9983abe982fa",
        "name": "Whetstone Craft Beers @ Whetstone Station",
        "brewery_type": "brewpub",
        "address_1": "36 Bridge St",
        "address_2": null,
        "address_3": null,
        "city": "Brattleboro",
        "state_province": "Vermont",
        "postal_code": "05301-3301",
        "country": "United States",
        "longitude": "-72.55627012",
        "latitude": "42.85164595",
        "phone": "8024902354",
        "website_url": "http://www.whetstonestation.com",
        "state": "Vermont",
        "street": "36 Bridge St"
    },
    {
        "id": "c9de9083-60d9-46d4-9544-b20b5f5d1556",
        "name": "Zero Gravity Craft Brewery",
        "brewery_type": "micro",
        "address_1": "716 Pinte Street",
        "address_2": null,
        "address_3": null,
        "city": "Burlington",
        "state_province": "Vermont",
        "postal_code": "05401",
        "country": "United States",
        "longitude": null,
        "latitude": null,
        "phone": "8024970054",
        "website_url": null,
        "state": "Vermont",
        "street": "716 Pinte Street"
    },
    {
        "id": "f192e49e-e2c9-485a-bdee-35ce3189ef93",
        "name": "Zero Gravity Craft Brewery",
        "brewery_type": "brewpub",
        "address_1": "716 Pine St",
        "address_2": null,
        "address_3": null,
        "city": "Burlington",
        "state_province": "Vermont",
        "postal_code": "05401-4922",
        "country": "United States",
        "longitude": "-73.2140363",
        "latitude": "44.4595462",
        "phone": "8024970054",
        "website_url": "http://www.zerogravitybeer.com",
        "state": "Vermont",
        "street": "716 Pine St"
    }
]